{"meta":{"code":200},"response":{"neighborhoods":[],"venues":[{"id":"4b7685e6f964a52046502ee3","name":"Brama Wyżynna","contact":{"phone":"+48583014355","formattedPhone":"+48 58 301 43 55"},"location":{"address":"Wojciecha Bogusławskiego 1","lat":54.35024204053021,"lng":18.646266115907036,"distance":199,"postalCode":"80-980","cc":"PL","city":"Gdańsk","state":"Pomorskie","country":"Poland"},"categories":[{"id":"4deefb944765f83613cdba6e","name":"Historic Site","pluralName":"Historic Sites","shortName":"Historic Site","icon":{"prefix":"https:\/\/ss1.4sqi.net\/img\/categories_v2\/arts_entertainment\/historicsite_","suffix":".png"},"primary":true}],"verified":false,"restricted":true,"stats":{"checkinsCount":425,"usersCount":126,"tipCount":5},"specials":{"count":0,"items":[]},"hereNow":{"count":0,"groups":[]},"referralId":"v-1383322944"},{"id":"4c41def1ff711b8d61911205","name":"Krewetka Cinema City","contact":{},"location":{"lat":54.355239645452535,"lng":18.646240140862787,"distance":358,"cc":"PL","city":"Gdańsk","state":"Pomorskie","country":"Poland"},"categories":[{"id":"4bf58dd8d48988d17f941735","name":"Movie Theater","pluralName":"Movie Theaters","shortName":"Movie Theater","icon":{"prefix":"https:\/\/ss1.4sqi.net\/img\/categories_v2\/arts_entertainment\/movietheater_","suffix":".png"},"primary":true}],"verified":false,"restricted":true,"stats":{"checkinsCount":793,"usersCount":379,"tipCount":4},"specials":{"count":0,"items":[]},"hereNow":{"count":1,"groups":[{"type":"others","name":"Other people here","count":1,"items":[]}]},"referralId":"v-1383322944"},{"id":"4cde7884aba88cfa7cf441d7","name":"Długi Targ","contact":{},"location":{"lat":54.34852989725558,"lng":18.654022225050603,"distance":617,"cc":"PL","city":"Gdańsk","state":"pomorskie","country":"Poland"},"categories":[{"id":"4bf58dd8d48988d164941735","name":"Plaza","pluralName":"Plazas","shortName":"Plaza","icon":{"prefix":"https:\/\/ss1.4sqi.net\/img\/categories_v2\/parks_outdoors\/plaza_","suffix":".png"},"primary":true}],"verified":false,"restricted":true,"stats":{"checkinsCount":1702,"usersCount":860,"tipCount":16},"specials":{"count":0,"items":[]},"hereNow":{"count":0,"groups":[]},"referralId":"v-1383322944"},{"id":"4e577ff9e4cd6acbd75c00cf","name":"Złota Brama","contact":{},"location":{"lat":54.34978202217985,"lng":18.6478990491038,"distance":262,"cc":"PL","country":"Poland"},"categories":[{"id":"4deefb944765f83613cdba6e","name":"Historic Site","pluralName":"Historic Sites","shortName":"Historic Site","icon":{"prefix":"https:\/\/ss1.4sqi.net\/img\/categories_v2\/arts_entertainment\/historicsite_","suffix":".png"},"primary":true}],"verified":false,"restricted":true,"stats":{"checkinsCount":525,"usersCount":278,"tipCount":1},"specials":{"count":0,"items":[]},"hereNow":{"count":0,"groups":[]},"referralId":"v-1383322944"},{"id":"4cfdbf0d0df3236a2bcb05aa","name":"Muzeum Bursztynu","contact":{"phone":"+48583014733","formattedPhone":"+48 58 301 47 33"},"location":{"address":"Targ Węglowy 26","lat":54.34982843591597,"lng":18.647671937942505,"distance":253,"cc":"PL","city":"Gdańsk","state":"Pomorskie","country":"Poland"},"categories":[{"id":"4bf58dd8d48988d190941735","name":"History Museum","pluralName":"History Museums","shortName":"History Museum","icon":{"prefix":"https:\/\/ss1.4sqi.net\/img\/categories_v2\/arts_entertainment\/museum_history_","suffix":".png"},"primary":true}],"verified":false,"restricted":true,"stats":{"checkinsCount":120,"usersCount":93,"tipCount":7},"specials":{"count":0,"items":[]},"hereNow":{"count":0,"groups":[]},"referralId":"v-1383322944"},{"id":"4dd0cc311f6eb12270b3925b","name":"Stare Miasto","contact":{},"location":{"address":"Dlugi Targ","lat":54.35184847232593,"lng":18.653462784432513,"distance":443,"cc":"PL","city":"Gdansk","state":"Pomerania","country":"Poland"},"categories":[{"id":"4bf58dd8d48988d164941735","name":"Plaza","pluralName":"Plazas","shortName":"Plaza","icon":{"prefix":"https:\/\/ss1.4sqi.net\/img\/categories_v2\/parks_outdoors\/plaza_","suffix":".png"},"primary":true}],"verified":false,"restricted":true,"stats":{"checkinsCount":439,"usersCount":266,"tipCount":1},"specials":{"count":0,"items":[]},"hereNow":{"count":1,"groups":[{"type":"others","name":"Other people here","count":1,"items":[]}]},"referralId":"v-1383322944"},{"id":"4d9ae08c422ea1cd90f8ee4c","name":"PGE Arena Gdańsk","contact":{},"location":{"address":"Pokoleń Lechii Gdańsk 1","crossStreet":"Żaglowa","lat":54.389891509131495,"lng":18.640387058258057,"distance":4234,"postalCode":"80-560","cc":"PL","city":"Gdańsk","state":"pomorskie","country":"Poland"},"categories":[{"id":"4bf58dd8d48988d188941735","name":"Soccer Stadium","pluralName":"Soccer Stadiums","shortName":"Soccer","icon":{"prefix":"https:\/\/ss1.4sqi.net\/img\/categories_v2\/arts_entertainment\/stadium_soccer_","suffix":".png"},"primary":true}],"verified":false,"restricted":true,"stats":{"checkinsCount":2139,"usersCount":1138,"tipCount":27},"specials":{"count":0,"items":[]},"hereNow":{"count":0,"groups":[]},"referralId":"v-1383322944"},{"id":"4bb8b3e5314e952102a7489d","name":"Mariacka","contact":{},"location":{"address":"Mariacka","lat":54.349644903921515,"lng":18.65572720548346,"distance":646,"cc":"PL","city":"Gdańsk","state":"Pomorskie","country":"Poland"},"categories":[{"id":"4deefb944765f83613cdba6e","name":"Historic Site","pluralName":"Historic Sites","shortName":"Historic Site","icon":{"prefix":"https:\/\/ss1.4sqi.net\/img\/categories_v2\/arts_entertainment\/historicsite_","suffix":".png"},"primary":true}],"verified":false,"restricted":true,"stats":{"checkinsCount":450,"usersCount":268,"tipCount":7},"specials":{"count":0,"items":[]},"hereNow":{"count":0,"groups":[]},"referralId":"v-1383322944"},{"id":"501d35cfe4b071e4971e782b","name":"Instytut Kultury Miejskiej","contact":{"phone":"+48583012016","formattedPhone":"+48 58 301 20 16"},"location":{"address":"Długa 39\/40","crossStreet":"róg Kuśnierskiej","lat":54.348315148552494,"lng":18.653948307037354,"distance":628,"postalCode":"80-830","cc":"PL","city":"Gdańsk","state":"Pomorskie","country":"Poland"},"categories":[{"id":"4bf58dd8d48988d171941735","name":"Event Space","pluralName":"Event Spaces","shortName":"Event Space","icon":{"prefix":"https:\/\/ss1.4sqi.net\/img\/categories_v2\/building\/eventspace_","suffix":".png"},"primary":true}],"verified":true,"restricted":true,"stats":{"checkinsCount":156,"usersCount":44,"tipCount":1},"url":"http:\/\/www.ikm.gda.pl","specials":{"count":0,"items":[]},"hereNow":{"count":0,"groups":[]},"venuePage":{"id":"39025989"},"storeId":"","referralId":"v-1383322944"},{"id":"4f0317b18b81b0190de0b256","name":"Bunkier","contact":{},"location":{"address":"Olejarna","crossStreet":"Zamkowa","lat":54.35433158580611,"lng":18.654791932969186,"distance":588,"cc":"PL","city":"Gdańsk","country":"Poland"},"categories":[{"id":"4bf58dd8d48988d11f941735","name":"Nightclub","pluralName":"Nightclubs","shortName":"Nightclub","icon":{"prefix":"https:\/\/ss1.4sqi.net\/img\/categories_v2\/nightlife\/nightclub_","suffix":".png"},"primary":true}],"verified":false,"restricted":true,"stats":{"checkinsCount":102,"usersCount":67,"tipCount":4},"specials":{"count":0,"items":[]},"hereNow":{"count":0,"groups":[]},"referralId":"v-1383322944"},{"id":"4dbd48321e72b351cac68c92","name":"Dwór Artusa - Muzeum Historyczne Miasta Gdańska","contact":{"phone":"+48587679180","formattedPhone":"+48 58 767 91 80"},"location":{"address":"Długi Targ 43\/44","lat":54.34851621720983,"lng":18.65325015132536,"distance":580,"cc":"PL","city":"Gdańsk","state":"pomorskie","country":"Poland"},"categories":[{"id":"4bf58dd8d48988d190941735","name":"History Museum","pluralName":"History Museums","shortName":"History Museum","icon":{"prefix":"https:\/\/ss1.4sqi.net\/img\/categories_v2\/arts_entertainment\/museum_history_","suffix":".png"},"primary":true}],"verified":false,"restricted":true,"stats":{"checkinsCount":195,"usersCount":145,"tipCount":12},"specials":{"count":0,"items":[]},"hereNow":{"count":0,"groups":[]},"referralId":"v-1383322944"},{"id":"502a17ade4b0c76f3ac565c3","name":"Zuraw Wielki - Brama Portowa","contact":{},"location":{"lat":54.35057067465991,"lng":18.65730662711697,"distance":710,"cc":"PL","country":"Poland"},"categories":[{"id":"4deefb944765f83613cdba6e","name":"Historic Site","pluralName":"Historic Sites","shortName":"Historic Site","icon":{"prefix":"https:\/\/ss1.4sqi.net\/img\/categories_v2\/arts_entertainment\/historicsite_","suffix":".png"},"primary":true}],"verified":false,"restricted":true,"stats":{"checkinsCount":67,"usersCount":59,"tipCount":1},"specials":{"count":0,"items":[]},"hereNow":{"count":0,"groups":[]},"referralId":"v-1383322944"},{"id":"5145b073e4b086fe06973d87","name":"Centralne Muzeum Morskie - Ośrodek Kultury Morskiej","contact":{},"location":{"address":"Tokarska 21-24","crossStreet":"Szeroka","lat":54.351031512009875,"lng":18.65746066335984,"distance":710,"postalCode":"80-888","cc":"PL","city":"Gdańsk","country":"Poland"},"categories":[{"id":"4bf58dd8d48988d190941735","name":"History Museum","pluralName":"History Museums","shortName":"History Museum","icon":{"prefix":"https:\/\/ss1.4sqi.net\/img\/categories_v2\/arts_entertainment\/museum_history_","suffix":".png"},"primary":true}],"verified":false,"restricted":true,"stats":{"checkinsCount":49,"usersCount":46,"tipCount":2},"specials":{"count":0,"items":[]},"hereNow":{"count":0,"groups":[]},"referralId":"v-1383322944"},{"id":"4e5895ecd22dfba6f4683569","name":"Żuraw","contact":{"phone":"+48583016938","formattedPhone":"+48 58 301 69 38"},"location":{"address":"ul. Szeroka 67\/68","crossStreet":"at Długie Pobrzeże","lat":54.35052252842105,"lng":18.657413721084595,"distance":718,"postalCode":"80-835","cc":"PL","city":"Gdańsk","state":"pomorskie","country":"Poland"},"categories":[{"id":"4deefb944765f83613cdba6e","name":"Historic Site","pluralName":"Historic Sites","shortName":"Historic Site","icon":{"prefix":"https:\/\/ss1.4sqi.net\/img\/categories_v2\/arts_entertainment\/historicsite_","suffix":".png"},"primary":true}],"verified":false,"restricted":true,"stats":{"checkinsCount":371,"usersCount":261,"tipCount":11},"url":"http:\/\/www.cmm.pl\/zuraw","specials":{"count":0,"items":[]},"hereNow":{"count":0,"groups":[]},"referralId":"v-1383322944"},{"id":"4c36bb6f04cbb7131722ee0d","name":"Polska Filharmonia Bałtycka","contact":{"phone":"+48583206250","formattedPhone":"+48 58 320 62 50"},"location":{"address":"ul. Ołowianka 1","lat":54.35256041552102,"lng":18.65990754411957,"distance":862,"postalCode":"80-751","cc":"PL","city":"Gdańsk","state":"Polska","country":"Poland"},"categories":[{"id":"5032792091d4c4b30a586d5c","name":"Concert Hall","pluralName":"Concert Halls","shortName":"Concert Hall","icon":{"prefix":"https:\/\/ss1.4sqi.net\/img\/categories_v2\/arts_entertainment\/musicvenue_","suffix":".png"},"primary":true}],"verified":false,"restricted":true,"stats":{"checkinsCount":399,"usersCount":250,"tipCount":7},"specials":{"count":0,"items":[]},"hereNow":{"count":0,"groups":[]},"referralId":"v-1383322944"},{"id":"520a541811d2bf6e3026b668","name":"Klub B90","contact":{},"location":{"address":"Doki 1","lat":54.364381248521106,"lng":18.648402636463004,"distance":1380,"cc":"PL","city":"Gdańsk","state":"Pomorskie","country":"Poland"},"categories":[{"id":"4bf58dd8d48988d1e5931735","name":"Music Venue","pluralName":"Music Venues","shortName":"Music Venue","icon":{"prefix":"https:\/\/ss1.4sqi.net\/img\/categories_v2\/arts_entertainment\/musicvenue_","suffix":".png"},"primary":true}],"verified":false,"restricted":true,"stats":{"checkinsCount":108,"usersCount":54,"tipCount":4},"url":"http:\/\/b90.pl","specials":{"count":0,"items":[]},"hereNow":{"count":0,"groups":[]},"referralId":"v-1383322944"},{"id":"4e452f5f1838e44e89960c22","name":"Stocznia Gdanska | Gdansk Shipyard","contact":{},"location":{"lat":54.362220287530164,"lng":18.64776849746704,"distance":1137,"cc":"PL","country":"Poland"},"categories":[{"id":"4deefb944765f83613cdba6e","name":"Historic Site","pluralName":"Historic Sites","shortName":"Historic Site","icon":{"prefix":"https:\/\/ss1.4sqi.net\/img\/categories_v2\/arts_entertainment\/historicsite_","suffix":".png"},"primary":true}],"verified":false,"restricted":true,"stats":{"checkinsCount":274,"usersCount":173,"tipCount":2},"specials":{"count":0,"items":[]},"hereNow":{"count":0,"groups":[]},"referralId":"v-1383322944"},{"id":"4c83b064309aef3b4f38ca81","name":"Multikino","contact":{},"location":{"address":"Zwycięstwa 14","lat":54.37221775712073,"lng":18.626902655627987,"distance":2586,"cc":"PL","city":"Gdańsk","state":"Pomorskie","country":"Poland"},"categories":[{"id":"4bf58dd8d48988d180941735","name":"Multiplex","pluralName":"Multiplexes","shortName":"Cineplex","icon":{"prefix":"https:\/\/ss1.4sqi.net\/img\/categories_v2\/arts_entertainment\/movietheater_cineplex_","suffix":".png"},"primary":true}],"verified":false,"restricted":true,"stats":{"checkinsCount":1042,"usersCount":403,"tipCount":11},"specials":{"count":0,"items":[]},"hereNow":{"count":0,"groups":[]},"referralId":"v-1383322944"},{"id":"5134fda7e4b0ba073410ba29","name":"Centrum Dowodzenia Wszechswiatem","contact":{},"location":{"address":"Diamentowa","lat":54.32684708588044,"lng":18.629259145264204,"distance":3021,"cc":"PL","city":"Gdańsk","country":"Poland"},"categories":[{"id":"4bf58dd8d48988d1e1931735","name":"Arcade","pluralName":"Arcades","shortName":"Arcade","icon":{"prefix":"https:\/\/ss1.4sqi.net\/img\/categories_v2\/arts_entertainment\/arcade_","suffix":".png"},"primary":true}],"verified":false,"restricted":true,"stats":{"checkinsCount":255,"usersCount":13,"tipCount":1},"specials":{"count":0,"items":[]},"hereNow":{"count":0,"groups":[]},"referralId":"v-1383322944"},{"id":"4cab64ced971b1f723a82ae1","name":"Ergo Arena","contact":{"phone":"+48587672101","formattedPhone":"+48 58 767 21 01","twitter":"ergoarena"},"location":{"address":"Plac Dwóch Miast 1","crossStreet":"Gospody","lat":54.42564647676755,"lng":18.580284118652344,"distance":9255,"postalCode":"80-344","cc":"PL","city":"Gdańsk","state":"pomorskie","country":"Poland"},"categories":[{"id":"4bf58dd8d48988d171941735","name":"Event Space","pluralName":"Event Spaces","shortName":"Event Space","icon":{"prefix":"https:\/\/ss1.4sqi.net\/img\/categories_v2\/building\/eventspace_","suffix":".png"},"primary":true}],"verified":false,"restricted":true,"stats":{"checkinsCount":1254,"usersCount":616,"tipCount":7},"url":"http:\/\/www.ergoarena.pl","specials":{"count":0,"items":[]},"hereNow":{"count":0,"groups":[]},"referralId":"v-1383322944"},{"id":"4cba0d9bbac9370444ffe87c","name":"Klub Żak","contact":{},"location":{"address":"Grunwaldzka 195\/197","lat":54.38702699564559,"lng":18.592365990263577,"distance":5250,"postalCode":"80-266","cc":"PL","city":"Gdańsk","state":"pomorskie","country":"Poland"},"categories":[{"id":"4bf58dd8d48988d1e5931735","name":"Music Venue","pluralName":"Music Venues","shortName":"Music Venue","icon":{"prefix":"https:\/\/ss1.4sqi.net\/img\/categories_v2\/arts_entertainment\/musicvenue_","suffix":".png"},"primary":true}],"verified":false,"restricted":true,"stats":{"checkinsCount":538,"usersCount":160,"tipCount":9},"specials":{"count":0,"items":[]},"hereNow":{"count":0,"groups":[]},"referralId":"v-1383322944"},{"id":"4ebf06ec4690d233890770ef","name":"MK Bowling","contact":{},"location":{"address":"Grunwaldzka 82","lat":54.37722055441122,"lng":18.60682725906372,"distance":3812,"postalCode":"80-244","cc":"PL","city":"Gdańsk","state":"pomorskie","country":"Poland"},"categories":[{"id":"4bf58dd8d48988d1e4931735","name":"Bowling Alley","pluralName":"Bowling Alleys","shortName":"Bowling Alley","icon":{"prefix":"https:\/\/ss1.4sqi.net\/img\/categories_v2\/arts_entertainment\/bowling_","suffix":".png"},"primary":true}],"verified":false,"restricted":true,"stats":{"checkinsCount":175,"usersCount":126,"tipCount":4},"specials":{"count":0,"items":[]},"hereNow":{"count":0,"groups":[]},"referralId":"v-1383322944"},{"id":"4caf543beb65b1f70dd362cd","name":"Helios","contact":{},"location":{"lat":54.404269089009695,"lng":18.587383272551357,"distance":6970,"cc":"PL","city":"Gdańsk","state":"Pomorskie","country":"Poland"},"categories":[{"id":"4bf58dd8d48988d180941735","name":"Multiplex","pluralName":"Multiplexes","shortName":"Cineplex","icon":{"prefix":"https:\/\/ss1.4sqi.net\/img\/categories_v2\/arts_entertainment\/movietheater_cineplex_","suffix":".png"},"primary":true}],"verified":false,"restricted":true,"stats":{"checkinsCount":495,"usersCount":202,"tipCount":6},"specials":{"count":0,"items":[]},"hereNow":{"count":0,"groups":[]},"referralId":"v-1383322944"},{"id":"4c00fb84ad46c9b62d3d9066","name":"Westerplatte","contact":{},"location":{"address":"majora Henryka Sucharskiego","lat":54.406091127970996,"lng":18.676443632261616,"distance":6321,"cc":"PL","city":"Gdańsk","state":"Pomerania","country":"Poland"},"categories":[{"id":"4deefb944765f83613cdba6e","name":"Historic Site","pluralName":"Historic Sites","shortName":"Historic Site","icon":{"prefix":"https:\/\/ss1.4sqi.net\/img\/categories_v2\/arts_entertainment\/historicsite_","suffix":".png"},"primary":true}],"verified":false,"restricted":true,"stats":{"checkinsCount":512,"usersCount":434,"tipCount":7},"specials":{"count":0,"items":[]},"hereNow":{"count":0,"groups":[]},"referralId":"v-1383322944"},{"id":"4b72d409f964a520a28a2de3","name":"Aquapark","contact":{"phone":"+48585558555","formattedPhone":"+48 58 555 85 55"},"location":{"address":"Zamkowa Góra 3","lat":54.45971435755619,"lng":18.55706078081682,"distance":13318,"postalCode":"81-713","cc":"PL","city":"Sopot","state":"Poland","country":"Poland"},"categories":[{"id":"4bf58dd8d48988d193941735","name":"Water Park","pluralName":"Water Parks","shortName":"Water Park","icon":{"prefix":"https:\/\/ss1.4sqi.net\/img\/categories_v2\/arts_entertainment\/waterpark_","suffix":".png"},"primary":true}],"verified":false,"restricted":true,"stats":{"checkinsCount":675,"usersCount":260,"tipCount":16},"specials":{"count":0,"items":[]},"hereNow":{"count":0,"groups":[]},"referralId":"v-1383322944"},{"id":"5069aa0ee4b0cdb2314bfc2e","name":"Pomnik Bohaterów Westerplatte","contact":{},"location":{"lat":54.406528367916174,"lng":18.66705733229712,"distance":6210,"cc":"PL","city":"Gdańsk","country":"Poland"},"categories":[{"id":"4deefb944765f83613cdba6e","name":"Historic Site","pluralName":"Historic Sites","shortName":"Historic Site","icon":{"prefix":"https:\/\/ss1.4sqi.net\/img\/categories_v2\/arts_entertainment\/historicsite_","suffix":".png"},"primary":true}],"verified":false,"restricted":true,"stats":{"checkinsCount":64,"usersCount":63,"tipCount":0},"specials":{"count":0,"items":[]},"hereNow":{"count":0,"groups":[]},"referralId":"v-1383322944"},{"id":"4fa12466003949601b29e50b","name":"Twierdza Wisłoujście - Muzeum Historyczne Miasta Gdańska","contact":{"phone":"+48583431405","formattedPhone":"+48 58 343 14 05"},"location":{"address":"ul. Stara Twierdza 1","lat":54.3955134607781,"lng":18.67974042892456,"distance":5295,"postalCode":"80-551","cc":"PL","city":"Gdańsk","state":"Pomorskie","country":"Poland"},"categories":[{"id":"4bf58dd8d48988d190941735","name":"History Museum","pluralName":"History Museums","shortName":"History Museum","icon":{"prefix":"https:\/\/ss1.4sqi.net\/img\/categories_v2\/arts_entertainment\/museum_history_","suffix":".png"},"primary":true}],"verified":false,"restricted":true,"stats":{"checkinsCount":73,"usersCount":59,"tipCount":8},"specials":{"count":0,"items":[]},"hereNow":{"count":0,"groups":[]},"referralId":"v-1383322944"},{"id":"500d7ce8e4b051062216d33e","name":"Green Club","contact":{"phone":"+48587618293","formattedPhone":"+48 58 761 82 93"},"location":{"address":"ul. Franciszka Hynka 69","lat":54.389542667678384,"lng":18.5927117580081,"distance":5447,"postalCode":"80-465","cc":"PL","city":"Gdańsk","state":"Pomorskie","country":"Poland"},"categories":[{"id":"4bf58dd8d48988d1e3931735","name":"Pool Hall","pluralName":"Pool Halls","shortName":"Billiards","icon":{"prefix":"https:\/\/ss1.4sqi.net\/img\/categories_v2\/arts_entertainment\/billiards_","suffix":".png"},"primary":true}],"verified":false,"restricted":true,"stats":{"checkinsCount":28,"usersCount":13,"tipCount":2},"specials":{"count":0,"items":[]},"hereNow":{"count":0,"groups":[]},"referralId":"v-1383322944"},{"id":"4d4ad7c87ac1a090a3123ea9","name":"Bowling Soprano","contact":{"phone":"+48585582020","formattedPhone":"+48 58 558 20 20"},"location":{"address":"Aleja Rzeczypospolitej 3","lat":54.40220681234497,"lng":18.594093062290153,"distance":6543,"postalCode":"80-369","cc":"PL","city":"Gdańsk","state":"Polska","country":"Poland"},"categories":[{"id":"4bf58dd8d48988d1e4931735","name":"Bowling Alley","pluralName":"Bowling Alleys","shortName":"Bowling Alley","icon":{"prefix":"https:\/\/ss1.4sqi.net\/img\/categories_v2\/arts_entertainment\/bowling_","suffix":".png"},"primary":true}],"verified":false,"restricted":true,"stats":{"checkinsCount":83,"usersCount":54,"tipCount":1},"specials":{"count":0,"items":[]},"hereNow":{"count":0,"groups":[]},"referralId":"v-1383322944"},{"id":"4bb9ed0b935e952166802790","name":"Multikino","contact":{},"location":{"address":"Bohaterow Monte Cassino","lat":54.44525288084378,"lng":18.56792449951172,"distance":11563,"cc":"PL","city":"Sopot","state":"Pomerania","country":"Poland"},"categories":[{"id":"4bf58dd8d48988d180941735","name":"Multiplex","pluralName":"Multiplexes","shortName":"Cineplex","icon":{"prefix":"https:\/\/ss1.4sqi.net\/img\/categories_v2\/arts_entertainment\/movietheater_cineplex_","suffix":".png"},"primary":true}],"verified":false,"restricted":true,"stats":{"checkinsCount":666,"usersCount":311,"tipCount":3},"specials":{"count":0,"items":[]},"hereNow":{"count":0,"groups":[]},"referralId":"v-1383322944"},{"id":"52369c5111d201dc7c5c686e","name":"CH Riviera","contact":{"phone":"+48586699480","formattedPhone":"+48 58 669 94 80"},"location":{"address":"Kazimierza Górskiego 2","crossStreet":"at Wołyńska","lat":54.50513847333838,"lng":18.533118342822313,"distance":18562,"postalCode":"81-304","cc":"PL","city":"Gdynia","state":"pomorskie","country":"Poland"},"categories":[{"id":"4bf58dd8d48988d1fd941735","name":"Mall","pluralName":"Malls","shortName":"Mall","icon":{"prefix":"https:\/\/ss1.4sqi.net\/img\/categories_v2\/shops\/mall_","suffix":".png"},"primary":true}],"verified":true,"restricted":true,"stats":{"checkinsCount":624,"usersCount":241,"tipCount":3},"specials":{"count":0,"items":[]},"hereNow":{"count":0,"groups":[]},"referralId":"v-1383322944"},{"id":"50aa3d3de4b0034097a374e3","name":"Dwór VI (pozostałości)","contact":{},"location":{"address":"Abrahama 34 i 27","lat":54.39072958908877,"lng":18.572574276391116,"distance":6452,"cc":"PL","city":"Gdańsk","country":"Poland"},"categories":[{"id":"4deefb944765f83613cdba6e","name":"Historic Site","pluralName":"Historic Sites","shortName":"Historic Site","icon":{"prefix":"https:\/\/ss1.4sqi.net\/img\/categories_v2\/arts_entertainment\/historicsite_","suffix":".png"},"primary":true}],"verified":false,"restricted":true,"stats":{"checkinsCount":41,"usersCount":1,"tipCount":0},"specials":{"count":0,"items":[]},"hereNow":{"count":0,"groups":[]},"referralId":"v-1383322944"},{"id":"4c48cd716594be9a2ff03924","name":"Spatif","contact":{},"location":{"lat":54.444318,"lng":18.567843,"distance":11472,"cc":"PL","country":"Poland"},"categories":[{"id":"4bf58dd8d48988d1e5931735","name":"Music Venue","pluralName":"Music Venues","shortName":"Music Venue","icon":{"prefix":"https:\/\/ss1.4sqi.net\/img\/categories_v2\/arts_entertainment\/musicvenue_","suffix":".png"},"primary":true}],"verified":false,"restricted":true,"stats":{"checkinsCount":757,"usersCount":317,"tipCount":7},"specials":{"count":0,"items":[]},"hereNow":{"count":0,"groups":[]},"referralId":"v-1383322944"},{"id":"4c9df06746978cfaa3379c7f","name":"ZOO - Miejski Ogród Zoologiczny","contact":{"phone":"+48585521751","formattedPhone":"+48 58 552 17 51"},"location":{"address":"Karwieńska 3","crossStreet":"Oliwa","lat":54.41256745298351,"lng":18.534795606739802,"distance":9899,"cc":"PL","city":"Gdańsk","state":"Pomorskie","country":"Poland"},"categories":[{"id":"4bf58dd8d48988d17b941735","name":"Zoo","pluralName":"Zoos","shortName":"Zoo","icon":{"prefix":"https:\/\/ss1.4sqi.net\/img\/categories_v2\/arts_entertainment\/zoo_","suffix":".png"},"primary":true}],"verified":false,"restricted":true,"stats":{"checkinsCount":492,"usersCount":345,"tipCount":25},"url":"http:\/\/www.zoo.gda.pl","specials":{"count":0,"items":[]},"hereNow":{"count":0,"groups":[]},"referralId":"v-1383322944"},{"id":"4e0ef46fd164fff335b03911","name":"MCKA Zatoka Sztuki","contact":{},"location":{"lat":54.45016151658505,"lng":18.5673383479224,"distance":12072,"cc":"PL","city":"Sopot","state":"Pomorskie","country":"Poland"},"categories":[{"id":"4d4b7104d754a06370d81259","name":"Arts & Entertainment","pluralName":"Arts & Entertainment","shortName":"Arts & Entertainment","icon":{"prefix":"https:\/\/ss1.4sqi.net\/img\/categories_v2\/arts_entertainment\/default_","suffix":".png"},"primary":true}],"verified":false,"restricted":true,"stats":{"checkinsCount":1218,"usersCount":626,"tipCount":31},"specials":{"count":0,"items":[]},"hereNow":{"count":0,"groups":[]},"referralId":"v-1383322944"},{"id":"4bbf1ff382a2ef3b183b2cd2","name":"Multikino Gemini","contact":{},"location":{"lat":54.51950129345769,"lng":18.54757915166034,"distance":19715,"cc":"PL","city":"Gdynia","state":"Poméranie","country":"Poland"},"categories":[{"id":"4bf58dd8d48988d180941735","name":"Multiplex","pluralName":"Multiplexes","shortName":"Cineplex","icon":{"prefix":"https:\/\/ss1.4sqi.net\/img\/categories_v2\/arts_entertainment\/movietheater_cineplex_","suffix":".png"},"primary":true}],"verified":false,"restricted":true,"stats":{"checkinsCount":894,"usersCount":338,"tipCount":4},"specials":{"count":0,"items":[]},"hereNow":{"count":1,"groups":[{"type":"others","name":"Other people here","count":1,"items":[]}]},"referralId":"v-1383322944"},{"id":"4e5787d3c65b2197869dc396","name":"Centrum Nauki Experyment","contact":{"phone":"+48587351137","formattedPhone":"+48 58 735 11 37"},"location":{"address":"Al. Zwycięstwa 96\/98","crossStreet":"ul. Redłowska","lat":54.49666415304423,"lng":18.537089824676514,"distance":17594,"postalCode":"81-451","cc":"PL","city":"Gdynia","country":"Poland"},"categories":[{"id":"4bf58dd8d48988d191941735","name":"Science Museum","pluralName":"Science Museums","shortName":"Science Museum","icon":{"prefix":"https:\/\/ss1.4sqi.net\/img\/categories_v2\/arts_entertainment\/museum_science_","suffix":".png"},"primary":true}],"verified":false,"restricted":true,"stats":{"checkinsCount":125,"usersCount":67,"tipCount":5},"url":"http:\/\/experyment.gdynia.pl","specials":{"count":0,"items":[]},"hereNow":{"count":0,"groups":[]},"referralId":"v-1383322944"},{"id":"4c30e19616adc92828d0bf9c","name":"Puzon Bar","contact":{},"location":{"address":"Morska, 16","lat":54.445814,"lng":18.56761,"distance":11628,"cc":"PL","city":"Сопот","state":"Поморские","country":"Poland"},"categories":[{"id":"4bf58dd8d48988d1e7931735","name":"Jazz Club","pluralName":"Jazz Clubs","shortName":"Jazz Club","icon":{"prefix":"https:\/\/ss1.4sqi.net\/img\/categories_v2\/arts_entertainment\/musicvenue_jazzclub_","suffix":".png"},"primary":true}],"verified":false,"restricted":true,"stats":{"checkinsCount":165,"usersCount":107,"tipCount":4},"specials":{"count":0,"items":[]},"hereNow":{"count":0,"groups":[]},"referralId":"v-1383322944"},{"id":"506ee955e4b0c21f081e1368","name":"Gdynia Infobox","contact":{},"location":{"address":"ul. Świętojańska","crossStreet":"ul. 10 lutego","lat":54.519063880561426,"lng":18.542068004608154,"distance":19788,"postalCode":"81-372","cc":"PL","city":"Gdynia","state":"pomorskie","country":"Poland"},"categories":[{"id":"4bf58dd8d48988d165941735","name":"Scenic Lookout","pluralName":"Scenic Lookouts","shortName":"Scenic Lookout","icon":{"prefix":"https:\/\/ss1.4sqi.net\/img\/categories_v2\/parks_outdoors\/sceniclookout_","suffix":".png"},"primary":true}],"verified":false,"restricted":true,"stats":{"checkinsCount":387,"usersCount":182,"tipCount":5},"url":"http:\/\/gdyniainfobox.pl","specials":{"count":0,"items":[]},"hereNow":{"count":0,"groups":[]},"referralId":"v-1383322944"},{"id":"4ba3e051f964a5203c6938e3","name":"Desdemona","contact":{},"location":{"address":"Abrahama 37","lat":54.51804258071001,"lng":18.540716171264645,"distance":19712,"postalCode":"81-366","cc":"PL","city":"Gdynia","state":"pomorskie","country":"Poland"},"categories":[{"id":"4bf58dd8d48988d16d941735","name":"Café","pluralName":"Cafés","shortName":"Café","icon":{"prefix":"https:\/\/ss1.4sqi.net\/img\/categories_v2\/food\/cafe_","suffix":".png"},"primary":true}],"verified":true,"restricted":true,"stats":{"checkinsCount":568,"usersCount":97,"tipCount":7},"url":"http:\/\/facebook.com\/klubdesdemona","specials":{"count":0,"items":[]},"hereNow":{"count":1,"groups":[{"type":"others","name":"Other people here","count":1,"items":[]}]},"venuePage":{"id":"62020143"},"storeId":"","referralId":"v-1383322944"},{"id":"4f9e65f4e4b0a3d1ddb5dec1","name":"Opera Leśna Sopot","contact":{},"location":{"address":"ul. Moniuszki","lat":54.444624858473745,"lng":18.54511907715827,"distance":12228,"cc":"PL","city":"Sopot","state":"pomorskie","country":"Poland"},"categories":[{"id":"5032792091d4c4b30a586d5c","name":"Concert Hall","pluralName":"Concert Halls","shortName":"Concert Hall","icon":{"prefix":"https:\/\/ss1.4sqi.net\/img\/categories_v2\/arts_entertainment\/musicvenue_","suffix":".png"},"primary":true}],"verified":false,"restricted":true,"stats":{"checkinsCount":346,"usersCount":143,"tipCount":3},"specials":{"count":0,"items":[]},"hereNow":{"count":0,"groups":[]},"referralId":"v-1383322944"},{"id":"4c9e2b3fd3c2b60cfb69c8bc","name":"Teatr muzyczny im. Danuty Baduszkowej","contact":{},"location":{"address":"Plac Grunwaldzki 1","lat":54.51681426015284,"lng":18.54553339053694,"distance":19477,"cc":"PL","city":"Gdynia","state":"Pomorskie","country":"Poland"},"categories":[{"id":"4bf58dd8d48988d137941735","name":"Theater","pluralName":"Theaters","shortName":"Theater","icon":{"prefix":"https:\/\/ss1.4sqi.net\/img\/categories_v2\/arts_entertainment\/performingarts_theater_","suffix":".png"},"primary":true}],"verified":false,"restricted":true,"stats":{"checkinsCount":223,"usersCount":121,"tipCount":6},"specials":{"count":0,"items":[]},"hereNow":{"count":0,"groups":[]},"referralId":"v-1383322944"},{"id":"4cded674ffcf3704ba651582","name":"Gdynia Arena","contact":{"phone":"+48587835500","formattedPhone":"+48 58 783 55 00"},"location":{"address":"ul. Kazimierza Górskiego 8","lat":54.499186333888375,"lng":18.53159769043344,"distance":17996,"postalCode":"81-302","cc":"PL","city":"Gdynia","state":"pomorskie","country":"Poland"},"categories":[{"id":"4bf58dd8d48988d184941735","name":"Stadium","pluralName":"Stadiums","shortName":"Stadium","icon":{"prefix":"https:\/\/ss1.4sqi.net\/img\/categories_v2\/arts_entertainment\/stadium_","suffix":".png"},"primary":true}],"verified":false,"restricted":true,"stats":{"checkinsCount":540,"usersCount":175,"tipCount":4},"url":"http:\/\/gdyniaarena.pl","specials":{"count":0,"items":[]},"hereNow":{"count":0,"groups":[]},"referralId":"v-1383322944"},{"id":"4d5ff75bb19fa1438993eec8","name":"Stadion Miejski w Gdyni","contact":{"phone":"+48587610490","formattedPhone":"+48 58 761 04 90"},"location":{"address":"ul. Olimpijska 5","crossStreet":"ul. Stryjska","lat":54.49307506888452,"lng":18.531060218811035,"distance":17394,"cc":"PL","city":"Gdynia","state":"pomorskie","country":"Poland"},"categories":[{"id":"4cce455aebf7b749d5e191f5","name":"Soccer Field","pluralName":"Soccer Fields","shortName":"Soccer Field","icon":{"prefix":"https:\/\/ss1.4sqi.net\/img\/categories_v2\/arts_entertainment\/stadium_soccer_","suffix":".png"},"primary":true}],"verified":false,"restricted":true,"stats":{"checkinsCount":260,"usersCount":70,"tipCount":1},"url":"http:\/\/www.gdyniasport.pl","specials":{"count":0,"items":[]},"hereNow":{"count":0,"groups":[]},"referralId":"v-1383322944"},{"id":"4c890151f53b236a7d47aba6","name":"Akwarium Gdyńskie","contact":{},"location":{"address":"al. Jana Pawła II 1","lat":54.51837886518862,"lng":18.55712056159973,"distance":19404,"postalCode":"81-345","cc":"PL","city":"Gdynia","state":"pomorskie","country":"Poland"},"categories":[{"id":"4fceea171983d5d06c3e9823","name":"Aquarium","pluralName":"Aquariums","shortName":"Aquarium","icon":{"prefix":"https:\/\/ss1.4sqi.net\/img\/categories_v2\/arts_entertainment\/aquarium_","suffix":".png"},"primary":true}],"verified":false,"restricted":true,"stats":{"checkinsCount":205,"usersCount":187,"tipCount":10},"specials":{"count":0,"items":[]},"hereNow":{"count":0,"groups":[]},"referralId":"v-1383322944"},{"id":"4d670451b2cfa090e1fbddbf","name":"ORP Błyskawica","contact":{},"location":{"address":"Al. Jana Pawła II","lat":54.51943752046748,"lng":18.55145573616028,"distance":19628,"cc":"PL","city":"Gdynia","state":"Poland","country":"Poland"},"categories":[{"id":"4bf58dd8d48988d12d951735","name":"Boat or Ferry","pluralName":"Boats or Ferries","shortName":"Boat \/ Ferry","icon":{"prefix":"https:\/\/ss1.4sqi.net\/img\/categories_v2\/travel\/boat_","suffix":".png"},"primary":true}],"verified":false,"restricted":true,"stats":{"checkinsCount":217,"usersCount":153,"tipCount":1},"specials":{"count":0,"items":[]},"hereNow":{"count":0,"groups":[]},"referralId":"v-1383322944"},{"id":"4e04683e1f6e97fbec324dd3","name":"Dar Pomorza","contact":{"phone":"+48586202371","formattedPhone":"+48 58 620 23 71"},"location":{"address":"Al. Jana Pawła II","lat":54.51930454752078,"lng":18.552978709837202,"distance":19583,"postalCode":"81-345","cc":"PL","city":"Gdynia","state":"Pomorskie","country":"Poland"},"categories":[{"id":"4bf58dd8d48988d12d951735","name":"Boat or Ferry","pluralName":"Boats or Ferries","shortName":"Boat \/ Ferry","icon":{"prefix":"https:\/\/ss1.4sqi.net\/img\/categories_v2\/travel\/boat_","suffix":".png"},"primary":true}],"verified":false,"restricted":true,"stats":{"checkinsCount":214,"usersCount":192,"tipCount":3},"specials":{"count":0,"items":[]},"hereNow":{"count":0,"groups":[]},"referralId":"v-1383322944"},{"id":"4ba6639cf964a5202f4d39e3","name":"Ucho","contact":{"phone":"+48586618973","formattedPhone":"+48 58 661 89 73"},"location":{"address":"Św. Piotra 2","lat":54.524473,"lng":18.546866,"distance":20254,"postalCode":"81-347","cc":"PL","city":"Gdynia","state":"pomorskie","country":"Poland"},"categories":[{"id":"4bf58dd8d48988d1e9931735","name":"Rock Club","pluralName":"Rock Clubs","shortName":"Rock Club","icon":{"prefix":"https:\/\/ss1.4sqi.net\/img\/categories_v2\/arts_entertainment\/musicvenue_rockclub_","suffix":".png"},"primary":true}],"verified":false,"restricted":true,"stats":{"checkinsCount":158,"usersCount":73,"tipCount":3},"specials":{"count":0,"items":[]},"hereNow":{"count":0,"groups":[]},"referralId":"v-1383322944"},{"id":"4bd6c9256f649521ed4b71ec","name":"Fokarium","contact":{},"location":{"address":"Portowa 17","lat":54.60702164162747,"lng":18.799986758559285,"distance":30068,"cc":"PL","city":"Hel","state":"Pomorskie","country":"Poland"},"categories":[{"id":"4bf58dd8d48988d17b941735","name":"Zoo","pluralName":"Zoos","shortName":"Zoo","icon":{"prefix":"https:\/\/ss1.4sqi.net\/img\/categories_v2\/arts_entertainment\/zoo_","suffix":".png"},"primary":true}],"verified":false,"restricted":true,"stats":{"checkinsCount":422,"usersCount":326,"tipCount":12},"specials":{"count":0,"items":[]},"hereNow":{"count":0,"groups":[]},"referralId":"v-1383322944"},{"id":"4e0b7131fa76f9d12b9177fc","name":"Multikino Rumia","contact":{},"location":{"lat":54.56377082082764,"lng":18.390920647147205,"distance":28799,"cc":"PL","city":"Rumia","state":"Pomeranian Voivodeship","country":"Poland"},"categories":[{"id":"4bf58dd8d48988d17f941735","name":"Movie Theater","pluralName":"Movie Theaters","shortName":"Movie Theater","icon":{"prefix":"https:\/\/ss1.4sqi.net\/img\/categories_v2\/arts_entertainment\/movietheater_","suffix":".png"},"primary":true}],"verified":false,"restricted":true,"stats":{"checkinsCount":122,"usersCount":50,"tipCount":1},"specials":{"count":0,"items":[]},"hereNow":{"count":0,"groups":[]},"referralId":"v-1383322944"}]}}